읍면동,경로당명,도로명주소,신고일자,대지면적,건물면적,기준일자,위도,경도
문산읍,갈곡경로당,경상남도 진주시 문산읍 갈곡길 24,1999-01-09,652,149.52,2023-05-01,35.1490354,128.2081584
문산읍,갈곡노인경로당,경상남도 진주시 문산읍 문산로 696,1994-02-21,918,256.3,2023-05-01,35.146934,128.2085296
문산읍,계리경로당,경상남도 진주시 문산읍 두산길5번길 1,1997-12-16,168,90.04,2023-05-01,35.1354328,128.1626928
문산읍,남동경로당,경상남도 진주시 문산읍 소문길17번길 6(2층),2009-11-13,158,94.44,2023-05-01,35.1709949,128.1639411
문산읍,남서경로당,경상남도 진주시 문산읍 월아산로1094번길 7,2001-08-28,218,65,2023-05-01,35.169209,128.1625691
문산읍,대호경로당,경상남도 진주시 문산읍 문정로540번길 13,2001-01-16,208,88.11,2023-05-01,35.1545312,128.1504444
문산읍,덕남경로당,경상남도 진주시 문산읍 동부로 564,2011-11-24,165,84.6,2023-05-01,35.1657529,128.1626166
문산읍,덕동경로당,경상남도 진주시  문산읍 동부로587번길 9,2006-04-04,196,86.76,2023-05-01,35.1682572,128.1639735
문산읍,덕촌경로당,경상남도 진주시 문산읍 동부로591번길 6-1(2층),2008-06-23,94,112.4,2023-05-01,35.1683491,128.1646246
문산읍,동방경로당,경상남도 진주시 문산읍 정자천로 204,1996-04-22,218,196.8,2023-05-01,35.1362782,128.1907658
문산읍,동정경로당,경상남도 진주시 문산읍 소문길53번길 3,2003-02-18,109,61.65,2023-05-01,35.1707938,128.1676218
문산읍,두산경로당,경상남도 진주시 문산읍 두산길203번길 12,1998-09-10,298,89.46,2023-05-01,35.144922,128.1516118
문산읍,문산경로당,경상남도 진주시 문산읍 동부로588번길 10,1963-08-09,126,212.2,2023-05-01,35.1667675,128.1648287
문산읍,부동경로당,경상남도 진주시 문산읍 소문길 117,1998-09-10,182,140.63,2023-05-01,35.1711962,128.1736559
문산읍,삼곡리경로당,경상남도 진주시 문산읍 동부로 634,2006-04-11,231,60.86,2023-05-01,35.1686477,128.1689684
문산읍,상이경로당,경상남도 진주시 문산읍 동부로781번길 56,2000-01-26,67,75.6,2023-05-01,35.1739579,128.1866234
문산읍,서정경로당,경상남도 진주시 문산읍 소문길 37-10,1998-09-10,358,84.8,2023-05-01,35.1710994,128.1661481
문산읍,송정경로당,경상남도 진주시 문산읍 문산로 582,1998-09-10,28,98.85,2023-05-01,35.1435213,128.2200688
문산읍,신촌경로당,경상남도 진주시 문산읍 문정로592번길 19-4,1999-08-24,219,99.44,2023-05-01,35.1586645,128.1533236
문산읍,안전경로당,경상남도 진주시 문산읍 정자천로 371,1999-01-09,163,91,2023-05-01,35.1457317,128.2032255
문산읍,어수경로당,경상남도 진주시 문산읍 월아산로800번길 22,1998-09-10,129,168,2023-05-01,35.14832,128.1673838
문산읍,원당경로당,경상남도 진주시 문산읍 동부로 620,2008-09-18,63,40.66,2023-05-01,35.1684919,128.1675668
문산읍,원촌경로당,경상남도 진주시 문산읍 동부로302번길 3,2006-04-07,18,77.46,2023-05-01,35.1624265,128.1378199
문산읍,이곡경로당,경상남도 진주시 문산읍 이곡길 123,1996-05-29,486,92.03,2023-05-01,35.1490202,128.1810983
문산읍,정동경로당,경상남도 진주시 문산읍 동부로326번길 85,2002-01-22,198,95.17,2023-05-01,35.1585351,128.1335518
문산읍,제곡경로당,경상남도 진주시 문산읍 제곡길 153,1999-06-17,119,118.8,2023-05-01,35.1572138,128.1794087
문산읍,주정경로당,경상남도 진주시 문산읍 소문길 89-4,2006-05-04,124,52.96,2023-05-01,35.1715499,128.1711631
문산읍,코아루A경로당,경상남도 진주시 문산읍 월아산로1117번길 5(문산코아루A),2011-10-12,235,235,2023-05-01,35.1696568,128.1610985
문산읍,파란채경로당,경상남도 진주시 문산읍 월아산로1048번길 15(문산파란채A),2012-03-14,74,73,2023-05-01,35.1653377,128.1657037
내동면,가호경로당,경상남도 진주시 내동면 유수길 121,1998-04-15,791,101.83,2023-05-01,35.1273432,128.0117363
내동면,남강휴먼빌A경로당,경상남도 진주시 내동면 순환로 425-61(남강휴먼빌A),2011-01-11,476.96,108.72,2023-05-01,35.1627934,128.0660157
내동면,내평경로당,경상남도 진주시 내동면 내축로663번길 48,2004-06-24,130,85.1,2023-05-01,35.1410688,128.0208735
내동면,대동경로당,경상남도 진주시 내동면 내동로 264,1999-04-14,265,265.96,2023-05-01,35.1492289,128.0938182
내동면,독산경로당,경상남도 진주시 내동면 순환로 396,1987-05-08,159,132,2023-05-01,35.1613576,128.0683774
내동면,산강경로당,경상남도 진주시 내동면 산유로 463,2005-08-11,225,81.75,2023-05-01,35.1438085,128.0603541
내동면,산기경로당,경상남도 진주시 내동면 철봉산길147번길 9,2004-11-06,183,88.4,2023-05-01,35.1436568,128.0409069
내동면,삼계경로당,경상남도 진주시 내동면 삼계로312번길 3,1998-02-04,361,86.42,2023-05-01,35.1521501,128.0343939
내동면,상촌경로당,경상남도 진주시 내동면 내축로577번길 166-3(2층),2006-07-07,233,138,2023-05-01,35.1401884,128.0047582
내동면,신광경로당,경상남도 진주시 내동면 삼계로140번길 23-1,1994-05-25,1904,188.6,2023-05-01,35.1373514,128.0297836
내동면,양옥경로당,경상남도 진주시 내동면 삼계로 288,1997-09-30,220,234.7,2023-05-01,35.1505829,128.0328314
내동면,유동경로당,경상남도 진주시 내동면 내축로 427-3,1999-07-22,145,127.44,2023-05-01,35.1260445,128.0315197
내동면,율곡경로당,경상남도 진주시 내동면 신율길 95,1996-04-14,216,82.47,2023-05-01,35.1433395,128.0878711
내동면,정동경로당,경상남도 진주시 내동면 내축로577번길 13-2,1996-04-17,112,204.5,2023-05-01,35.1327942,128.0178209
정촌면,강남경로당,경상남도 진주시 정촌면 강주길18번길 24,2005-09-27,182,83.89,2023-05-01,35.1124371,128.0933046
정촌면,강서경로당,경상남도 진주시 정촌면 강주길 3-8,2006-11-09,321,84.49,2023-05-01,35.1151672,128.0927185
정촌면,강주경로당,경상남도 진주시 정촌면 강주길 54번길2,1997-05-30,131,265,2023-05-01,35.1140571,128.0974679
정촌면,고미경로당,경상남도 진주시 정촌면 정촌로 626,1998-08-20,79,76.9,2023-05-01,35.1362824,128.1429598
정촌면,대방경로당,경상남도 진주시 정촌면 대축길131번길 23,2003-05-03,121,100.44,2023-05-01,35.1320051,128.0894226
정촌면,대초경로당,경상남도 진주시 정촌면 강주길229번길 16,2009-06-26,393,71.78,2023-05-01,35.1106978,128.1128531
정촌면,매동경로당,경상남도 진주시 정촌면 화개길 234,1996-04-17,283,49.68,2023-05-01,35.1370598,128.1122888
정촌면,매동본동경로당,경상남도 진주시 정촌면 화개길 148,2004-07-08,313,114.21,2023-05-01,35.133171,128.1098234
정촌면,모심경로당,경상남도 진주시 정촌면 화개길 345,1998-08-20,222,86.23,2023-05-01,35.1406,128.1015891
정촌면,목과경로당,경상남도 진주시 정촌면 진주대로 134-25,1999-11-30,103,61.14,2023-05-01,35.1216133,128.0963148
정촌면,목과남경로당,경상남도 진주시 정촌면 진주대로130번길 29-7,2005-05-07,314,91.09,2023-05-01,35.1195127,128.0967091
정촌면,봉동경로당,경상남도 진주시 정촌면 문정로82번길 4,1997-05-30,417,143.16,2023-05-01,35.1258787,128.1436282
정촌면,봉전경로당,경상남도 진주시 정촌면 무선산로 265,1998-10-07,281,111.43,2023-05-01,35.1180947,128.1528957
정촌면,삼웅경로당,경상남도 진주시 정촌면 정촌로 525,1998-04-06,141,72.1,2023-05-01,35.1361049,128.1330517
정촌면,소곡경로당,경상남도 진주시 정촌면 정촌로265번길 15,1978-04-10,383,103.77,2023-05-01,35.1227132,128.1212317
정촌면,심대경로당,경상남도 진주시 정촌면 대축길85번길 145,1997-10-30,469,76.1,2023-05-01,35.1306079,128.0763355
정촌면,예상경로당,경상남도 진주시 정촌면 강주길 125,2005-09-27,365,71.02,2023-05-01,35.1099937,128.102392
정촌면,이동경로당,경상남도 진주시 정촌면 정촌로139번길 19-9,1996-04-17,102,107.65,2023-05-01,35.1284288,128.1094251
정촌면,죽봉경로당,경상남도 진주시 정촌면 화개길194번길 121(2층),1996-04-17,201,103.68,2023-05-01,35.1398356,128.1219773
정촌면,함촌경로당,경상남도 진주시 정촌면 대축길85번길 45-3,1998-08-20,649,406.02,2023-05-01,35.1263382,128.0855391
정촌면,함촌본동경로당,경상남도 진주시 정촌면 대축길105번길 10-2,2004-07-08,261,63.51,2023-05-01,35.1284144,128.0886604
정촌면,화동경로당,경상남도 진주시 정촌면 화개길 61,1997-08-01,155,82.67,2023-05-01,35.1345576,128.1035112
정촌면,화원경로당,경상남도 진주시 정촌면 대축길237번길 22,2003-05-15,184,81.2,2023-05-01,35.1372637,128.0963379
금곡면,가봉경로당,경상남도 진주시 금곡면 문산로 358,1996-02-26,212,166.14,2023-05-01,35.1261254,128.2178458
금곡면,가수동경로당,경상남도 진주시 금곡면 문산로 266-1,2005-01-13,139,66.16,2023-05-01,35.1204638,128.2183823
금곡면,검당경로당,경상남도 진주시 금곡면 월아산로 425-17,1999-06-03,185,66.6,2023-05-01,35.118802,128.1799722
금곡면,덕계경로당,경상남도 진주시 금곡면 성산길 188,1996-08-14,298,106.84,2023-05-01,35.0730266,128.201006
금곡면,동례경로당,경상남도 진주시 금곡면 월아산로 282,1991-10-30,354,215,2023-05-01,35.1061988,128.1823086
금곡면,두문경로당,경상남도 진주시 금곡면 두문길 115,1995-11-15,198,103.2,2023-05-01,35.1013397,128.1941417
금곡면,상인담경로당,경상남도 진주시 금곡면 무선산로464번길 40,1995-11-15,215,78.09,2023-05-01,35.1090738,128.1688282
금곡면,석계경로당,경상남도 진주시 금곡면 구암두문로986번길 32,1995-11-15,30,103.2,2023-05-01,35.087854,128.1801661
금곡면,성산경로당,경상남도 진주시 금곡면 성산길28번길 102,1993-07-08,337,119.5,2023-05-01,35.0714401,128.1856677
금곡면,세경경로당,경상남도 진주시 금곡면 월아산로115번길 22-10(2층),1985-09-20,319,163.35,2023-05-01,35.0910297,128.1852504
금곡면,세경할머니경로당,경상남도 진주시 금곡면 구암두문로 1021-7,1998-12-23,613,552.8,2023-05-01,35.0907731,128.1863565
금곡면,송곡경로당,경상남도 진주시 금곡면 송곡길 106,1996-01-08,109,103.2,2023-05-01,35.1322753,128.1984749
금곡면,시평경로당,경상남도 진주시 금곡면 월아산로480번길 26,1997-12-24,136,205.84,2023-05-01,35.1237197,128.1824749
금곡면,신담경로당,경상남도 진주시 금곡면 월아산로479번길 5,1996-12-16,132,106.84,2023-05-01,35.1221711,128.1800106
금곡면,신대경로당,경상남도 진주시 금곡면 월아산로201번길 5,1995-02-18,283,149.22,2023-05-01,35.0992389,128.1851491
금곡면,엄정경로당,경상남도 진주시 금곡면 검암길 110,1997-01-20,224,103.2,2023-05-01,35.1167808,128.1897618
금곡면,우봉경로당,경상남도 진주시 금곡면 금곡로 453,1996-01-08,97,103.2,2023-05-01,35.1253845,128.2299232
금곡면,운문경로당,경상남도 진주시 금곡면 금곡로 145,1991-12-27,114,103.2,2023-05-01,35.1216039,128.1972602
금곡면,인담경로당,경상남도 진주시 금곡면 무선산로 550-5,1997-04-01,331,106.84,2023-05-01,35.1187629,128.1717839
금곡면,장재경로당,경상남도 진주시 금곡면 죽곡길118번길 64-1,1996-08-14,497,106.84,2023-05-01,35.0786373,128.1716414
금곡면,정자경로당,경상남도 진주시 금곡면 정자천로 66(완공되도 주소는 그대로),1995-02-18,211,82.74,2023-05-01,35.1342714,128.1770085
금곡면,죽곡경로당,경상남도 진주시 금곡면 죽곡길105번길 17(2층),1995-06-22,179,142.94,2023-05-01,35.0743578,128.1780977
금곡면,차현경로당,경상남도 진주시 금곡면 금곡로79번길 2,1997-01-20,147,106.84,2023-05-01,35.1230126,128.1902546
금곡면,홍정경로당,경상남도 진주시 금곡면 홍정길52번길 5,1995-09-23,217,166.14,2023-05-01,35.1297682,128.1754285
진성면,가좌경로당,경상남도 진주시 진성면 진의로 349,1994-05-11,801,341.6,2023-05-01,35.211615,128.2100441
진성면,교동경로당,경상남도 진주시 진성면 진성로 347,1996-06-28,215,70.2,2023-05-01,35.1684592,128.2252179
진성면,구천경로당,경상남도 진주시 진성면 진성로259번길 17,1997-03-17,266,86.7,2023-05-01,35.1609908,128.2255973
진성면,내촌경로당,경상남도 진주시 진성면 일사로693번길 28,1985-03-24,450,90.6,2023-05-01,35.1654874,128.2545199
진성면,대사경로당,경상남도 진주시 진성면 대사길 29-9,1981-04-03,101,78.75,2023-05-01,35.1467792,128.2525731
진성면,대사웃골경로당,경상남도 진주시 진성면 대사길 75-3,2006-02-10,225,68.73,2023-05-01,35.1464662,128.2483649
진성면,대흥경로당,경상남도 진주시 진성면 천곡길 24,1991-11-18,290,297.93,2023-05-01,35.1873726,128.2441275
진성면,도동경로당,경상남도 진주시 진성면 진성로276번길 149,1998-09-19,100,60.48,2023-05-01,35.1555354,128.2351582
진성면,동산경로당,경상남도 진주시 진성면 진의로94번길 9,1988-02-10,126,129.72,2023-05-01,35.1946596,128.2228974
진성면,두소경로당,경상남도 진주시 진성면 일사로 501,1991-05-30,202,79.38,2023-05-01,35.1524922,128.2549492
진성면,사곡경로당,경상남도 진주시 진성면 온수길59번길 21,1997-06-26,158,72.51,2023-05-01,35.1700697,128.2521145
진성면,상동경로당,경상남도 진주시 진성면 진성로 459,2000-06-23,460,168,2023-05-01,35.1777772,128.2231432
진성면,예음경로당,경상남도 진주시 진성면 동부로1345번길 24-11,1999-01-09,230,98.8,2023-05-01,35.1878287,128.222515
진성면,월정경로당,경상남도 진주시 진성면 동산길 60,2001-03-14,298,92.34,2023-05-01,35.1951209,128.2165344
진성면,장곡경로당,경상남도 진주시 진성면 일사로 658,2004-02-09,275,77.76,2023-05-01,35.1642392,128.2588197
진성면,진동경로당,경상남도 진주시 진성면 진의로215번길 25,1994-11-09,168,66.8,2023-05-01,35.2039426,128.2187738
진성면,진성경로당,경상남도 진주시 진성면 동부로 1336-9,1995-02-18,331,165.04,2023-05-01,35.1852685,128.2254736
진성면,천곡경로당,경상남도 진주시 진성면 동부로1602번길 78,1999-07-13,459,102.6,2023-05-01,35.1819406,128.2502619
일반성면,가곡경로당,경상남도 진주시 일반성면 공치고개길193번길 12,1997-04-01,317,116.3,2023-05-01,35.1837348,128.2949137
일반성면,개암경로당,경상남도 진주시 일반성면 개암길9번길 2,1967-04-28,465,87.56,2023-05-01,35.1681853,128.293301
일반성면,개암할머니경로당,경상남도 진주시 일반성면 개암길 39-2,1994-02-21,67,33.5,2023-05-01,35.1703519,128.2950111
일반성면,관동경로당,경상남도 진주시 일반성면 일사로375번길 28,2004-04-22,117,71.19,2023-05-01,35.1446238,128.2616987
일반성면,구리경로당,경상남도 진주시 일반성면 동부로 2036,1998-09-10,212,182.48,2023-05-01,35.1703691,128.2841405
일반성면,금야경로당,경상남도 진주시 일반성면 일사로 354,1997-04-01,213,92.54,2023-05-01,35.1466702,128.2651344
일반성면,남산경로당,경상남도 진주시 일반성면 일사로 412,1980-07-04,597,203.94,2023-05-01,35.1483332,128.259513
일반성면,남평경로당,경상남도 진주시 일반성면 동부로2060번길 28-1,2006-04-11,615,52.8,2023-05-01,35.1681912,128.2847117
일반성면,답천경로당,경상남도 진주시 일반성면 수목원로277번길 28-2,1975-05-06,684,84.77,2023-05-01,35.1582126,128.2851445
일반성면,대한노인회일반성면반성경로회경로당,경상남도 진주시 일반성면 떡보길 13,1963-10-07,112,66,2023-05-01,35.1689394,128.2789258
일반성면,도동경로당,경상남도 진주시 일반성면 반성로33번길 3-1,2000-09-16,156,58.29,2023-05-01,35.167226,128.2983257
일반성면,도장경로당,경상남도 진주시  일반성면 떡보길110번길 32-6,2010-10-08,516,91.52,2023-05-01,35.1596025,128.2793249
일반성면,상남경로당,경상남도 진주시 일반성면 수목원로 57,1995-03-23,225,87.99,2023-05-01,35.1452802,128.2795244
일반성면,상촌경로당,경상남도 진주시 일반성면 운천길202번길 68-7,2001-02-08,186,82.13,2023-05-01,35.1545259,128.2729814
일반성면,선동경로당,경상남도 진주시 일반성면 동부로2059번길 38,1998-11-04,150,80.68,2023-05-01,35.1715575,128.2898845
일반성면,소아경로당,경상남도 진주시 일반성면 반성로127번길 49(1.2층),1996-09-14,202,108.86,2023-05-01,35.1708871,128.3060794
일반성면,시정경로당,경상남도 진주시 일반성면 창촌길70번길 10-2,1996-04-17,1154.97,69.18,2023-05-01,35.1712085,128.2819252
일반성면,신기경로당,경상남도 진주시 일반성면 창촌길45번길 18-4,1997-12-15,302,72.36,2023-05-01,35.1728854,128.2803242
일반성면,신촌경로당,경상남도 진주시 일반성면 창촌길 32-1,2004-06-10,137,149.79,2023-05-01,35.1716194,128.2781014
일반성면,신촌노모정경로당,경상남도 진주시 일반성면 창촌길 32-6,1996-04-17,1149,66.3,2023-05-01,35.1712739,128.2778233
일반성면,양전경로당,경상남도 진주시 일반성면 양전길91번길 2,1998-12-28,116,64.8,2023-05-01,35.1541627,128.295452
일반성면,운천본동경로당,경상남도 진주시 일반성면 운천길 107,1999-10-08,139,63.75,2023-05-01,35.1646115,128.265818
일반성면,원당경로당,경상남도 진주시 일반성면 일사로782번길 21-7,1994-02-21,1134,100.49,2023-05-01,35.1732571,128.2631641
일반성면,원동경로당,경상남도 진주시 일반성면 남산길 115,1996-04-17,198,77.13,2023-05-01,35.1399763,128.2913635
일반성면,창촌경로당,경상남도 진주시 일반성면 창촌길75번길 13,1999-05-21,131,74.4,2023-05-01,35.1719505,128.2835684
일반성면,포실경로당,경상남도 진주시 일반성면 운천길151번길 9,2004-06-10,116,65.86,2023-05-01,35.1624706,128.2701616
이반성면,검정경로당,경상남도 진주시 이반성면 장안로66번길 18-10,1999-03-06,337,91.49,2023-05-01,35.1882343,128.3402156
이반성면,계룡경로당,경상남도 진주시 이반성면 길성길 77,1995-03-06,157,89.58,2023-05-01,35.1504525,128.3335503
이반성면,교풍경로당,경상남도 진주시 이반성면 진마대로2520번길 97,2004-04-22,683,107.65,2023-05-01,35.1396321,128.3285449
이반성면,대동경로당,경상남도 진주시 이반성면 대천길155번길 11,1985-04-16,283,89.46,2023-05-01,35.155588,128.3076147
이반성면,동촌경로당,경상남도 진주시 이반성면 하곡로 181,2007-05-18,218,85.02,2023-05-01,35.1731067,128.3448398
이반성면,모곡경로당,경상남도 진주시 이반성면 반성로 276(2층),1999-03-06,209,88.32,2023-05-01,35.1688976,128.3241238
이반성면,발산경로당,경상남도 진주시 이반성면 발산길11번길 16-3,2000-07-11,148,73.81,2023-05-01,35.1425209,128.3441882
이반성면,삼거경로당,경상남도 진주시 이반성면 오봉산로 881,1988-04-30,152,70.86,2023-05-01,35.1828524,128.3306479
이반성면,상촌경로당,경상남도 진주시 이반성면 오봉산로554번길 18-1,1987-05-21,222,86.18,2023-05-01,35.1570692,128.3186778
이반성면,서촌경로당,경상남도 진주시 이반성면 하곡로 85,1993-02-15,200,100.45,2023-05-01,35.1737685,128.334802
이반성면,송죽경로당,경상남도 진주시  이반성면 오봉산로1025번길 40,2005-01-28,485,90.79,2023-05-01,35.1923234,128.3343499
이반성면,수성경로당,경상남도 진주시 이반성면 진마대로2498번길 53,1999-03-06,256,99,2023-05-01,35.1453011,128.3229366
이반성면,심신경로당,경상남도 진주시 이반성면 오봉산로405번길 13-2,2002-03-15,215,60.5,2023-05-01,35.146821,128.3090263
이반성면,오동경로당,경상남도 진주시 이반성면 대천길 78,2002-08-12,160,93.13,2023-05-01,35.1577272,128.2998637
이반성면,용암경로당,경상남도 진주시 이반성면 용암길 69,1998-11-11,60,72.7,2023-05-01,35.1668368,128.3311765
이반성면,장안경로당,경상남도 진주시 이반성면 장안로65번길 69,2008-01-24,199,77.85,2023-05-01,35.1932853,128.3468141
이반성면,죽산경로당,경상남도 진주시 이반성면 부평길42번길 4,2007-09-14,254,79.2,2023-05-01,35.1871321,128.3280009
이반성면,중도경로당,경상남도 진주시 이반성면 오봉산로949번길 14-1,2002-03-15,307,96.98,2023-05-01,35.1899068,128.3320217
이반성면,중촌경로당,경상남도 진주시 이반성면 가산길 8,2001-06-23,214,81.25,2023-05-01,35.1571177,128.3155447
이반성면,지화경로당,경상남도 진주시 이반성면 오봉산로761번길 83,2000-06-13,291,87.19,2023-05-01,35.1772783,128.3206355
이반성면,진안경로당,경상남도 진주시 이반성면 장안로 212-2,2007-09-14,214,57.42,2023-05-01,35.1867961,128.3553002
이반성면,평동경로당,경상남도 진주시 이반성면 길성길19번길 11,1999-03-06,241,77.15,2023-05-01,35.1493423,128.3276484
이반성면,하동경로당,경상남도 진주시 이반성면 반성로229번길 13-2,2000-06-13,174,64.65,2023-05-01,35.1708665,128.3196182
이반성면,하촌경로당,경상남도 진주시 이반성면 가산길 44,1997-03-17,457,86.4,2023-05-01,35.1591254,128.313016
사봉면,거곡경로당,경상남도 진주시 사봉면 지수로98번길 12-5,1997-12-30,469,88,2023-05-01,35.2058002,128.2841781
사봉면,남마성경로당,경상남도 진주시 사봉면 지사로 349,1995-10-19,292,76.83,2023-05-01,35.2039613,128.2362467
사봉면,다무경로당,경상남도 진주시 사봉면 동부로 1859-1,1999-12-22,261,116.3,2023-05-01,35.1783011,128.2706417
사봉면,등건경로당,경상남도 진주시 사봉면 지사로284번길 43-1,1998-09-28,271,82.75,2023-05-01,35.1999096,128.2438111
사봉면,모곡경로당,경상남도 진주시 사봉면 모곡길 37,1995-10-19,564,72.96,2023-05-01,35.1965174,128.2909474
사봉면,방촌경로당,경상남도 진주시 사봉면 지사로 158,1997-05-30,475,208.23,2023-05-01,35.1968907,128.2518629
사봉면,봉대경로당,경상남도 진주시 사봉면 사군로243번길 5-4,1998-06-27,122,60.5,2023-05-01,35.1990202,128.2748689
사봉면,부동경로당,경상남도 진주시 사봉면 부계길 100,2000-12-12,357,83.85,2023-05-01,35.1885541,128.3131787
사봉면,북마성경로당,경상남도 진주시 사봉면 지사로552번길 10,2002-04-25,239,80.7,2023-05-01,35.2184967,128.2377188
사봉면,사동경로당,경상남도 진주시 사봉면 사군로103번길 26-4,1998-07-24,397,88,2023-05-01,35.1900232,128.2693156
사봉면,사봉경로당,경상남도 진주시 사봉면 사군로55번길 21,1976-02-24,209,96.54,2023-05-01,35.1880624,128.2633063
사봉면,시곡경로당,경상남도 진주시 사봉면 지사로486번길 27,2008-09-18,185,69.15,2023-05-01,35.2128918,128.2433696
사봉면,오동경로당,경상남도 진주시 사봉면 부평길 320,2002-01-04,188,68.5,2023-05-01,35.2042013,128.3185664
사봉면,우곡경로당,경상남도 진주시 사봉면 우곡길 64,1995-03-23,84,98.42,2023-05-01,35.1920018,128.2639862
사봉면,저동경로당,경상남도 진주시 사봉면 공치고개길228번길 27,1997-12-30,182,70.89,2023-05-01,35.1855816,128.298396
사봉면,죽항경로당,경상남도 진주시 사봉면 동부로1751번길 5,1997-12-30,342,86.15,2023-05-01,35.182623,128.2599477
사봉면,중촌경로당,경상남도 진주시 사봉면 동부로1769번길 31,1997-12-30,261,85.8,2023-05-01,35.1814365,128.2639559
사봉면,진등경로당,경상남도 진주시 사봉면 사군로55번길 16,1997-12-30,135,99.17,2023-05-01,35.1878801,128.2639223
사봉면,초문경로당,경상남도 진주시 사봉면 사군로361번길 75,1998-01-05,234,33.39,2023-05-01,35.2021936,128.2890781
사봉면,화광경로당,경상남도 진주시 사봉면 사군로758번길 33-22,2002-04-12,192,73.2,2023-05-01,35.2122602,128.3119001
지수면,덕암경로당,경상남도 진주시 지수면 지수로595번길 69,2004-04-06,413,82.42,2023-05-01,35.2416139,128.2675718
지수면,동지경로당,경상남도 진주시 지수면 용봉로 756-4,1999-09-30,236,85.95,2023-05-01,35.2537474,128.2141436
지수면,무등경로당,경상남도 진주시 지수면 청담길175번길 32,2002-07-16,604,83.16,2023-05-01,35.2487262,128.2574798
지수면,세곡경로당,경상남도 진주시 지수면 지사로754번길 110,1998-04-06,124,45.05,2023-05-01,35.2218756,128.2583108
지수면,송정경로당,경상남도 진주시 지수면 용봉로 173,2006-02-10,209,100,2023-05-01,35.2350853,128.2545164
지수면,송정학구경로당,경상남도 진주시 지수면 용봉로 208,1993-02-15,235,93.97,2023-05-01,35.2350868,128.25131
지수면,승산상동경로당,경상남도 진주시 지수면 지수로 460,2007-12-06,187,72.8,2023-05-01,35.2325887,128.2693424
지수면,신당경로당,경상남도 진주시 지수면 금평로260번길 4,1998-04-06,335,95.4,2023-05-01,35.2141756,128.2566705
지수면,안계경로당,경상남도 진주시 지수면 용봉로912번길 8,1998-04-06,588,79.72,2023-05-01,35.2587287,128.2230037
지수면,압현경로당,경상남도 진주시 지수면 용봉로150번길 134-5,1998-12-22,137,69.32,2023-05-01,35.2423588,128.249825
지수면,용봉경로당,경상남도 진주시 지수면 용봉로292번길 93,1998-12-22,91,49.82,2023-05-01,35.2477057,128.2448096
지수면,지수경로당,경상남도 진주시 지수면 지수로 443,1982-04-15,2314,838.19,2023-05-01,35.2312392,128.268766
지수면,청담경로당,경상남도 진주시 지수면 청담길16번길 4(2층),1981-05-12,512,262.8,2023-05-01,35.2476857,128.2737539
지수면,청원경로당,경상남도 진주시 지수면 청원길 71,1982-05-30,284,99.66,2023-05-01,35.2288999,128.2827029
지수면,필동경로당,경상남도 진주시 지수면 지사로690번길 4,1993-11-23,321,98,2023-05-01,35.2240046,128.2478569
지수면,하동경로당,경상남도 진주시 지수면 승산길 40-2,1999-09-30,274,100.56,2023-05-01,35.2355867,128.2688929
대곡면,가정경로당,경상남도 진주시 대곡면 진의로864번길 3,1974-06-08,942,372.78,2023-05-01,35.2509662,128.1853492
대곡면,광석경로당,경상남도 진주시 대곡면 진의로 1180-6,1997-09-05,139,128.96,2023-05-01,35.2720509,128.1676128
대곡면,단목경로당,경상남도 진주시 대곡면 단목길 7,1972-04-27,393,98.1,2023-05-01,35.256126,128.146356
대곡면,대곡면경로당,경상남도 진주시 대곡면 진의로1079번길 14-8,1998-06-27,554,165.3,2023-05-01,35.263651,128.1680638
대곡면,덕곡경로당,경상남도 진주시 대곡면 덕곡길 147,1988-04-23,251,333.9,2023-05-01,35.2251671,128.1844852
대곡면,덕촌경로당,경상남도 진주시 대곡면 월암로 457,1978-05-03,205,66.84,2023-05-01,35.3171584,128.1608433
대곡면,마진경로당,경상남도 진주시 대곡면 마한로257번길 24,2002-11-19,89,68.88,2023-05-01,35.2631171,128.1760277
대곡면,마호경로당,경상남도 진주시 대곡면 마진한실로 209,2005-09-29,232,77.67,2023-05-01,35.2185936,128.2180124
대곡면,봉평경로당,경상남도 진주시 대곡면 진의로964번길 5,1997-03-03,411,95.71,2023-05-01,35.2571387,128.1774692
대곡면,북창경로당,경상남도 진주시 대곡면 진의로 1086-8,1973-02-16,264,135.88,2023-05-01,35.2635502,128.169748
대곡면,상촌경로당,경상남도 진주시 대곡면 월암로153번길 12,1997-07-11,539,115,2023-05-01,35.292479,128.1646426
대곡면,석포경로당,경상남도 진주시 대곡면 유곡로 69,2006-11-09,215,76.83,2023-05-01,35.276044,128.1378406
대곡면,설매경로당,경상남도 진주시 대곡면 월암로 83,1983-03-24,457,113.42,2023-05-01,35.2858874,128.1658278
대곡면,송곡경로당,경상남도 진주시 대곡면 소실길 219,1997-04-22,604,200.24,2023-05-01,35.2489943,128.1706565
대곡면,신흥경로당,경상남도 진주시 대곡면 신흥길1번길 7-4,2000-07-31,92,56.2,2023-05-01,35.2581149,128.1392699
대곡면,오곡경로당,경상남도 진주시 대곡면 진의로 650,1997-07-11,207,197.24,2023-05-01,35.234584,128.1969601
대곡면,용암경로당,경상남도 진주시 대곡면 월암로456번길 30,1998-09-10,119,82.61,2023-05-01,35.3197678,128.1618655
대곡면,월아경로당,경상남도 진주시 대곡면 월아길52번길 2,1993-11-12,416,149.04,2023-05-01,35.2456187,128.1345753
대곡면,월암경로당,경상남도 진주시 대곡면 월암로 352,1995-06-22,386,177.12,2023-05-01,35.3089845,128.165495
대곡면,유곡경로당,경상남도 진주시 대곡면 유곡로 341,1970-07-30,503,97.74,2023-05-01,35.2642057,128.1563355
대곡면,유동경로당,경상남도 진주시 대곡면 대화로105번길 93,1984-03-17,212,145.11,2023-05-01,35.2694881,128.1827951
대곡면,중촌경로당,경상남도 진주시 대곡면 진의로 738,1978-05-02,334,297.38,2023-05-01,35.2419637,128.1940471
대곡면,지내경로당,경상남도 진주시 대곡면 단목길 66,2001-06-23,737,97.74,2023-05-01,35.2607326,128.1485485
대곡면,한실경로당,경상남도 진주시 대곡면 마한로 597,1995-03-06,407,97.56,2023-05-01,35.2631171,128.1760277
금산면,e-편한세상경로당,경상남도 진주시 금산면 금산순환로80번길 16(e편한세상A),2010-05-11,59.4,59.4,2023-05-01,35.2202206,128.1530093
금산면,갈전경로당,경상남도 진주시 금산면 갈전길 81,1980-01-05,167,53.5,2023-05-01,35.1891263,128.1624446
금산면,관방경로당,경상남도 진주시 금산면 금산순환로402번길 18,1986-04-20,431,138.9,2023-05-01,35.2303801,128.1635374
금산면,구암경로당,경상남도 진주시 금산면 월아산로1929번길 26,1995-02-16,236,211.68,2023-05-01,35.2117658,128.1320782
금산면,금산경로당,경상남도 진주시 금산면 금산순환로 4-1,1995-11-15,331,228.55,2023-05-01,35.214849,128.1467947
금산면,금산아이파크경로당,경상남도 진주시 금산면 중천로 82(금산아이파크A),2004-12-27,316,316,2023-05-01,35.2163111,128.1456998
금산면,금호경로당,경상남도 진주시 금산면 금산로 130( 금호맨션 1동 108호),2010-05-28,83.14,83.14,2023-05-01,35.2127282,128.149394
금산면,남성경로당,경상남도 진주시 금산면 금산순환로311번길 9,1985-05-06,295,172.5,2023-05-01,35.2357656,128.1616487
금산면,느티나무경로당,"경상남도 진주시 금산면 중천로 74,2층(느티나무A)",2006-06-26,87,86.4,2023-05-01,35.2176881,128.1446497
금산면,덕의경로당,경상남도 진주시 금산면 덕의길 117,1991-04-08,671,135.6,2023-05-01,35.2255035,128.1394549
금산면,덕정경로당,경상남도 진주시 금산면 금산순환로 109,1994-01-24,116,135.3,2023-05-01,35.223049,128.150407
금산면,두산위브경로당,경상남도 진주시 금산면 중장로154번길 49(두산위브A),2009-10-12,132.58,132.58,2023-05-01,35.2205013,128.1488118
금산면,사동경로당,경상남도 진주시 금산면 금산순환로 549,1997-08-11,153,164.04,2023-05-01,35.2172637,128.1590099
금산면,상의경로당,경상남도 진주시 금산면 상의길 46,1997-09-05,523,150.78,2023-05-01,35.2214003,128.1355425
금산면,석교경로당,경상남도 진주시 금산면 금산순환로 168-2,1998-04-15,123,65.8,2023-05-01,35.22809,128.1518777
금산면,속사경로당,경상남도 진주시 금산면 속사길 88,1968-04-15,93,53.16,2023-05-01,35.1875999,128.1453249
금산면,송백경로당,경상남도 진주시 금산면 송백로 330,1980-04-06,240.24,177.6,2023-05-01,35.198948,128.1364273
금산면,용심경로당,경상남도 진주시 금산면 금산로 250,1998-11-04,238,82.46,2023-05-01,35.2056212,128.1560728
금산면,월아경로당,경상남도 진주시 금산면 달음산로53번길 36,1998-02-13,182,70.58,2023-05-01,35.2016096,128.1744566
금산면,조동경로당,경상남도 진주시 금산면 갈전길 50,1997-12-04,1515,100,2023-05-01,35.1871559,128.1602253
금산면,중천경로당,경상남도 진주시 금산면 금산로57번길 7,1997-09-05,157,144.78,2023-05-01,35.2147066,128.1421863
금산면,진주푸르지오1단지경로당,경상남도 진주시 금산면 덕의길 15(진주푸르지오1단지A),2008-05-08,236,114.6,2023-05-01,35.2188738,128.1459642
금산면,진주푸르지오2단지경로당,경상남도 진주시 금산면 덕의길 11-1(진주푸르지오2단지A),2008-05-08,156.6,56.16,2023-05-01,35.2177831,128.147283
금산면,진흥더루벤스경로당,경상남도 진주시 금산면 금산로 22(진흥더루벤스),2012-06-20,130.6,130.6,2023-05-01,35.2132454,128.1401452
금산면,청천경로당,경상남도 진주시 금산면 청천길 14,1997-08-28,347,166.6,2023-05-01,35.214885,128.1330561
금산면,현지경로당,경상남도 진주시 금산면 금산순환로76번길 1,1984-05-08,250,178.64,2023-05-01,35.2199641,128.150779
금산면,흥한골든빌A경로당,"경상남도 진주시 금산면 금산로 123, 3층(금산흥한골든빌)",2003-11-18,303.9,303.9,2023-05-01,35.2150891,128.1500328
집현면,금빛마을경로당,경상남도 진주시 집현면 진산로 675(금빛마을현대A),2001-10-29,727,80,2023-05-01,35.238613,128.0903711
집현면,기동경로당,경상남도 진주시 집현면 진주성로414번길 7-7,2002-12-02,294,78.8,2023-05-01,35.222679,128.0649004
집현면,냉정경로당,경상남도 진주시 집현면 냉정길 267,1995-11-15,355,143.94,2023-05-01,35.257028,128.0979826
집현면,대암경로당,경상남도 진주시 집현면 진산로1165번길 17,1993-06-18,291,227.87,2023-05-01,35.2682872,128.0795147
집현면,덕성경로당,경상남도 진주시 집현면 향양로217번길 62-2(2층),2005-07-27,314,139.38,2023-05-01,35.253534,128.1150166
집현면,덕오경로당,경상남도 진주시 집현면 향양로75번길 18-3(1.2층),2001-09-15,93,85.03,2023-05-01,35.2429827,128.1277021
집현면,봉강경로당,경상남도 진주시 집현면 진산로645번길 26,1998-04-06,349,110.86,2023-05-01,35.2378013,128.0895805
집현면,불너머경로당,경상남도 진주시 집현면 불너머길280번길 1,2009-11-06,177,67.96,2023-05-01,35.2361136,128.1278384
집현면,사촌경로당,경상남도 진주시 집현면 진주성로348번길 25,1998-06-27,268,87,2023-05-01,35.2163733,128.066032
집현면,신당경로당,경상남도 진주시 집현면 신당길 129,1998-09-28,390,160.98,2023-05-01,35.2287494,128.1127181
집현면,오동경로당,경상남도 진주시 집현면 향양로89번길 38,2006-12-27,364,96.75,2023-05-01,35.2440558,128.12551
집현면,원동경로당,경상남도 진주시 집현면 진주성로 735(1층),1996-01-08,291,168,2023-05-01,35.2433252,128.0708893
집현면,월평경로당,경상남도 진주시 집현면 신당길50번길 18-1,1998-08-20,200,98.51,2023-05-01,35.225017,128.1048802
집현면,장흥경로당,경상남도 진주시 집현면 진산로487번길 11,1997-09-30,221,86.74,2023-05-01,35.2290254,128.0997384
집현면,정수경로당,경상남도 진주시 집현면 진산로1391번길 6-1,1998-04-06,273,91.5,2023-05-01,35.2855519,128.0823521
집현면,정평경로당,경상남도 진주시 집현면 응석로 220,1995-09-23,374,171.72,2023-05-01,35.278652,128.0659543
집현면,죽산경로당,경상남도 진주시 집현면 신당길 210,2000-02-08,165,97.22,2023-05-01,35.2254148,128.1196484
집현면,지내경로당,경상남도 진주시 집현면 지내길117번길 2,1978-01-05,218,143.62,2023-05-01,35.2470003,128.0788405
집현면,평방경로당,경상남도 진주시 집현면 응석로 95,2009-06-26,188,66.92,2023-05-01,35.2685309,128.0710476
집현면,평촌경로당,경상남도 진주시 집현면 남강로 2042-4,2005-07-27,529,89.4,2023-05-01,35.2392226,128.1360683
집현면,현동경로당,경상남도 진주시 집현면 지내길 217,1997-09-30,403,90.57,2023-05-01,35.2438822,128.0881973
집현면,혈암경로당,경상남도 진주시 집현면 진산로 1034,1995-08-09,1070,157.41,2023-05-01,35.2597131,128.0721707
미천면,개심경로당,경상남도 진주시 미천면 향양로 666(2층),2000-06-13,252.21,192.96,2023-05-01,35.2892042,128.1064702
미천면,기전경로당,경상남도 진주시 미천면 상미로 303,1997-04-01,156,100.8,2023-05-01,35.3327501,128.1288831
미천면,내리실경로당,경상남도 진주시 미천면 진산로1623번길 12,2005-11-18,200,66.78,2023-05-01,35.3064012,128.0782075
미천면,내인경로당,경상남도 진주시 미천면 오방로 1099-4(2층),1996-02-26,461,190.54,2023-05-01,35.3169489,128.0904797
미천면,대곡경로당,경상남도 진주시 미천면 상미로 469,1994-11-23,403,193.37,2023-05-01,35.3407489,128.1427535
미천면,덕진경로당,경상남도 진주시 미천면 널방재길195번길 31,1996-02-26,289,100.8,2023-05-01,35.2993776,128.1474949
미천면,동향경로당,경상남도 진주시 미천면 향양로788번길 4,2002-12-17,212,79.05,2023-05-01,35.2980287,128.0989558
미천면,미곡경로당,경상남도 진주시 미천면 상미로 71,1970-04-20,357,104.8,2023-05-01,35.3171306,128.1145725
미천면,반지경로당,경상남도 진주시 미천면 향양로 448,1996-03-14,186,146,2023-05-01,35.2720436,128.1145827
미천면,북동경로당,경상남도 진주시 미천면 오방로1088번길 42,2006-03-16,179,104.8,2023-05-01,35.3197049,128.094889
미천면,삭성경로당,경상남도 진주시 미천면 향양로365번길 24,2010-04-12,201,67.33,2023-05-01,35.2654227,128.1141878
미천면,성호경로당,경상남도 진주시 미천면 오방로311번길 6(1층),2006-08-24,234,91.66,2023-05-01,35.2735087,128.1290921
미천면,신촌경로당,경상남도 진주시 미천면 상미로 198,1994-07-28,262,84.2,2023-05-01,35.3243136,128.1244739
미천면,어옥경로당,경상남도 진주시 미천면 어옥로 178(2층중 1층사용),1984-04-10,1263,148,2023-05-01,35.3047745,128.1361687
미천면,오방경로당,경상남도 진주시 미천면 오방로 711(2층중 1층 사용),1995-06-22,575,192.96,2023-05-01,35.2982516,128.1173178
미천면,임곡경로당,경상남도 진주시 미천면 안간길 70,1997-10-15,321,100.8,2023-05-01,35.3169599,128.0833223
미천면,장죽경로당,경상남도 진주시 미천면 향양로 576-1,1998-04-24,465,196.62,2023-05-01,35.2820216,128.1103987
미천면,점촌경로당,경상남도 진주시 미천면 오방로 552,1997-10-15,46,100.8,2023-05-01,35.2896843,128.1304002
미천면,정별경로당,경상남도 진주시 미천면 오방로371번길 27,2009-03-26,201,51.39,2023-05-01,35.2764978,128.1254302
미천면,정성경로당,경상남도 진주시 미천면 오방로441번길 13,1998-02-04,239,148,2023-05-01,35.2833518,128.1215781
미천면,정촌경로당,경상남도 진주시 미천면 효자길23번길 8,2008-12-29,252,59,2023-05-01,35.3322829,128.0812296
미천면,정호경로당,경상남도 진주시 미천면 오방로199번길 49(2층중 1층 사용),1996-02-26,325,146,2023-05-01,35.2651682,128.129456
명석면,가화경로당,경상남도 진주시 명석면 가화로 393,1997-12-04,188,83.25,2023-05-01,35.2156195,127.9996691
명석면,계원경로당,경상남도 진주시 명석면 광제산로 650,1997-01-20,476,99.4,2023-05-01,35.2704605,128.0438572
명석면,계원갈전경로당,경상남도 진주시 명석면 관덕길261번길 9,2005-12-28,165,64.8,2023-05-01,35.2611957,128.0394664
명석면,관지경로당,경상남도 진주시 명석면 관덕길28번길 1,1993-02-15,488,163.8,2023-05-01,35.2504802,128.0387545
명석면,나불경로당,경상남도 진주시 명석면 나불로 277-9(2층),2003-08-26,260,101.6,2023-05-01,35.2155004,128.0414703
명석면,남성경로당,경상남도 진주시 명석면 남성로 443,1997-03-24,218,105,2023-05-01,35.268152,128.0499388
명석면,내율경로당,경상남도 진주시 명석면 외율길207번길 7-1,1998-09-19,106,63,2023-05-01,35.2915085,128.0056729
명석면,덕곡경로당,경상남도 진주시 명석면 관덕길126번길 5,1998-08-20,155,84.87,2023-05-01,35.2554815,128.0315433
명석면,동신A경로당,경상남도 진주시 명석면 광제산로 11-21(동신A),1993-07-08,183.64,119.2,2023-05-01,35.2171084,128.0410737
명석면,동전경로당,경상남도 진주시 명석면 광제산로833번길 8,1997-11-24,548,95.55,2023-05-01,35.2824361,128.0326389
명석면,비실경로당,경상남도 진주시 명석면 진주대로1706번길 153,2006-06-13,495,83.28,2023-05-01,35.2307075,128.030052
명석면,삭평경로당,경상남도 진주시 명석면 광제산로108번길 5,2007-02-28,470,74.7,2023-05-01,35.2255334,128.0425073
명석면,서현경로당,경상남도 진주시 명석면 가화로 605,1997-03-17,283,88.2,2023-05-01,35.2324498,127.9943197
명석면,시목경로당,경상남도 진주시 명석면 진주대로2122번길 7-5,2004-05-25,294.7,99.22,2023-05-01,35.241476,127.9963343
명석면,신기경로당,경상남도 진주시 명석면 광제산로 936,2005-02-05,224,83.11,2023-05-01,35.2909121,128.0305616
명석면,신촌경로당,경상남도 진주시 명석면 광제산로 283,1997-03-24,319,102.03,2023-05-01,35.2394123,128.0448172
명석면,신촌정자경로당,경상남도 진주시 명석면 남성로 33-5,2008-09-18,296,57.3,2023-05-01,35.2370893,128.0483852
명석면,오미경로당,경상남도 진주시 명석면 진주대로 2132-7,2002-01-31,325,97.5,2023-05-01,35.2421641,127.995452
명석면,오미이주경로당,경상남도 진주시 명석면 진주대로2143번길 2-15,2004-12-27,542.1,123.9,2023-05-01,35.2434496,127.9936993
명석면,왕지경로당,경상남도 진주시 명석면 남성로128번길 30,2002-11-19,219,93.9,2023-05-01,35.2431355,128.05261
명석면,왕지동성경로당,경상남도 진주시 명석면 한치골길230번길 36-1,2008-01-04,605,82.98,2023-05-01,35.2391613,128.054339
명석면,외율경로당,경상남도 진주시 명석면 외율길 37,1996-01-08,716,324.69,2023-05-01,35.28104,127.9952267
명석면,용산경로당,경상남도 진주시 명석면 진주대로1859번길 5,1997-11-25,560,104.37,2023-05-01,35.22764,128.0185998
명석면,우수경로당,경상남도 진주시 명석면 진주대로1807번길 17,2001-02-23,184,92.08,2023-05-01,35.2241331,128.0227099
명석면,우수새마을경로당,경상남도 진주시 명석면 판문로575번길 26(2층),2006-01-17,653,81.24,2023-05-01,35.2170744,128.0286118
명석면,장흥경로당,경상남도 진주시 명석면 남성로689번길 99,1994-11-09,353,70,2023-05-01,35.2892877,128.0561142
명석면,조비경로당,경상남도 진주시 명석면 진주대로1706번길 23(2층),1997-05-30,494,247.08,2023-05-01,35.2208964,128.0324542
명석면,추동경로당,경상남도 진주시 명석면 남성로 217,2005-03-22,281,54,2023-05-01,35.2516392,128.0544225
명석면,토담경로당,경상남도 진주시 명석면 관덕길187번길 24-2,2007-09-21,218,83.26,2023-05-01,35.2620883,128.0315786
명석면,팔미경로당,경상남도 진주시 명석면 팔미길13번길 25-8,1996-12-23,301,91.76,2023-05-01,35.2579898,127.9974316
명석면,홍지경로당,경상남도 진주시 명석면 광제산로 743,1987-10-11,661,86.84,2023-05-01,35.2768455,128.0392665
대평면,내촌경로당,경상남도 진주시 대평면 호반로486번길 21,2003-12-02,248,85.35,2023-05-01,35.1656711,127.9889116
대평면,당촌경로당,경상남도 진주시 대평면 호반로 736,2006-02-03,231,76.05,2023-05-01,35.1787951,127.9727081
대평면,대평경로당,경상남도 진주시 대평면 한들길42번길 15,1955-04-18,820.2,110.9,2023-05-01,35.2328049,127.9619219
대평면,사평경로당,경상남도 진주시 대평면 호반로 789-15,1968-03-05,64279,52.89,2023-05-01,35.182134,127.9697722
대평면,신풍경로당,경상남도 진주시 대평면 신풍길 201,2005-09-02,466,73.98,2023-05-01,35.2005241,127.9950706
대평면,하촌경로당,경상남도 진주시 대평면 호반로 975-34,2006-09-12,871,78.84,2023-05-01,35.1977241,127.9638523
수곡면,광명경로당,경상남도 진주시 수곡면 원외길22번길 17,1993-02-15,317,219.96,2023-05-01,35.1594225,127.9533405
수곡면,구태경로당,경상남도 진주시 수곡면 사곡로213번길 42,2004-02-09,142,56.58,2023-05-01,35.2164104,127.9110865
수곡면,대각경로당,경상남도 진주시 수곡면 곤수로 1254,1998-12-16,121,163.53,2023-05-01,35.2228148,127.9323674
수곡면,대우경로당,경상남도 진주시 수곡면 사곡로489번길 17,2002-08-13,201,71.64,2023-05-01,35.2405436,127.9153212
수곡면,대천경로당,경상남도 진주시 수곡면 옥수로 649-1(1층),1986-04-28,676,75.6,2023-05-01,35.1984468,127.9304838
수곡면,덕곡경로당,경상남도 진주시 수곡면 사곡로90번길 11,2000-02-17,233,85,2023-05-01,35.2127056,127.9262921
수곡면,도량경로당,경상남도 진주시 수곡면 시묘산길 339,1994-12-29,69,67.2,2023-05-01,35.2111896,127.899993
수곡면,동월경로당,경상남도 진주시 수곡면 덕천로 574,1997-11-14,224,87.9,2023-05-01,35.2212841,127.8946981
수곡면,문정경로당,경상남도 진주시 수곡면 원창길336번길 8,2000-12-14,234,87.9,2023-05-01,35.1799374,127.9273096
수곡면,사곡경로당,경상남도 진주시 수곡면 사곡로128번길 20,1997-11-14,337,230.42,2023-05-01,35.2158943,127.9227624
수곡면,사방경로당,경상남도 진주시 수곡면 시묘산길 96,2000-01-12,204,59.49,2023-05-01,35.2016853,127.9212094
수곡면,서촌경로당,경상남도 진주시 수곡면 원창길4번길 37,2005-09-22,253,93.91,2023-05-01,35.1684751,127.9498985
수곡면,신촌경로당,경상남도 진주시 수곡면 원창길 93,1997-11-14,218,93.81,2023-05-01,35.1645752,127.944757
수곡면,요산경로당,경상남도 진주시 수곡면 곤수로898번길 3,2003-01-20,130,59.14,2023-05-01,35.1942783,127.9382441
수곡면,원계경로당,경상남도 진주시 수곡면 덕천로504번길 6,1997-11-14,140,87.9,2023-05-01,35.2156839,127.8957696
수곡면,원내경로당,경상남도 진주시 수곡면 곤수로 599-1,2005-12-01,693,80.5,2023-05-01,35.1712314,127.951869
수곡면,원당경로당,경상남도 진주시 수곡면 곤수로 556,1978-03-11,225,33.06,2023-05-01,35.167837,127.9541016
수곡면,원동경로당,경상남도 진주시 수곡면 곤수로514번길 60,1997-11-14,808,95.52,2023-05-01,35.1657123,127.960754
수곡면,원외경로당,경상남도 진주시 수곡면 원외길123번길 3,2001-09-25,307,156,2023-05-01,35.1579518,127.9456478
수곡면,월계경로당,경상남도 진주시 수곡면 곤수로1407번길 40,1998-12-16,322,88.44,2023-05-01,35.2352884,127.9319528
수곡면,자매경로당,경상남도 진주시 수곡면 사곡로 699,1995-03-06,545,219.18,2023-05-01,35.2448023,127.9326615
수곡면,조계경로당,경상남도 진주시 수곡면 덕천로268번길 16,1998-12-16,598,94.25,2023-05-01,35.1967452,127.8988504
수곡면,중전경로당,경상남도 진주시 수곡면 중전길 192,2006-02-10,175,67.2,2023-05-01,35.1942853,127.953019
수곡면,직금경로당,경상남도 진주시 수곡면 옥수로555번길 7(1층),2008-10-02,629,68.28,2023-05-01,35.1917789,127.9240637
수곡면,창촌경로당,경상남도 진주시 수곡면 옥수로 461,1997-11-14,2172,92.71,2023-05-01,35.1837563,127.9215676
수곡면,효남경로당,경상남도 진주시 수곡면 곤수로 725,1997-11-14,230,68.4,2023-05-01,35.179529,127.9436193
수곡면,효동경로당,경상남도 진주시 수곡면 곤수로865번길 66,2005-01-19,200,67.86,2023-05-01,35.1886231,127.933778
천전동,강남경로당,경상남도 진주시 진주대로929번길 10-3(강남동),1998-04-06,149,80,2023-05-01,35.1825339,128.0884724
천전동,금호석류마을경로당,"경상남도 진주시 강남로 45(주약동,금호석류마을)",2001-05-15,120,120,2023-05-01,35.1727313,128.0952705
천전동,남가람경로당,경상남도 진주시 강남로255번길 9-11(칠암동),1998-08-20,137.8,78.07,2023-05-01,35.187461,128.0898414
천전동,남강경로당,경상남도 진주시 동진로49번길 12(칠암동),2007-03-30,123.5,75.96,2023-05-01,35.1800356,128.0964314
천전동,남부경로당,경상남도 진주시 강남로177번길 14-6(칠암동),1989-05-13,222.5,134.12,2023-05-01,35.1840702,128.0936672
천전동,대경강남타운경로당,"경상남도 진주시 진주대로891번길 16(강남동,대경강남타운)",2001-08-25,40,39.69,2023-05-01,35.1803252,128.0896554
천전동,대덕A경로당,"경상남도 진주시 진주대로942번길 16(칠암동,칠암대덕A)",2007-12-24,70,70,2023-05-01,35.1843819,128.0901074
천전동,동성가든타워경로당,"경상남도 진주시 진주대로 901,1층(강남동,동성가든타워)",1996-04-17,78.38,78.38,2023-05-01,35.1809146,128.0893276
천전동,동신경로당,"경상남도 진주시 망진산길 32(망경동,망경동신A)",2010-10-04,77.805,77.805,2023-05-01,35.180083,128.081384
천전동,망경경로당,경상남도 진주시 봉수대길5번길 3(망경동),1990-10-26,93,231.22,2023-05-01,35.1816719,128.0827226
천전동,삼환나우빌A경로당,"경상남도 진주시 진주대로829번길 21(주약동,삼환나우빌)",2013-10-18,90.5,73.7,2023-05-01,35.1739651,128.0916713
천전동,이화경로당,"경상남도 진주시 망경남길 31(망경동,이화A)",2009-01-13,49.3,63.7,2023-05-01,35.1808362,128.0841134
천전동,제일경로당,경상남도 진주시 망경로295번길 8-1(강남동),2006-03-03,155,92.25,2023-05-01,35.1861246,128.0852357
천전동,주경경로당,경상남도 진주시 천수로 126-3,1990-10-26,117,69.82,2023-05-01,35.1765981,128.0870635
천전동,주동경로당,경상남도 진주시 진주대로829번길 6-7(주약동),2001-10-19,175,87.84,2023-05-01,35.1747547,128.0923858
천전동,주약경로당,경상남도 진주시 주약약골길 25-4(주약동),1989-05-13,102.73,102.73,2023-05-01,35.1705497,128.0894926
천전동,주약한보은빛마을경로당,"경상남도 진주시 진주대로 789(주약동,주약한보은빛마을)",2002-06-03,84,83.22,2023-05-01,35.1941905,128.0630755
천전동,주약현대아파트경로당,"경상남도 진주시 진주대로815번길 11,1층(주약동,주약현대A)",2002-06-03,135,135,2023-05-01,35.1720664,128.0929171
천전동,천전경로당,경상남도 진주시 천수로237번길 7-8(망경동),1989-05-13,331,120.94,2023-05-01,35.1832863,128.0787238
천전동,칠암경로당,경상남도 진주시 동진로50번길 9-2(칠암동)남 동진로50번길 9-3(칠암동)여,1989-05-13,255,91.61,2023-05-01,35.17825,128.0969197
천전동,한보타운경로당,"경상남도 진주시 망경로 234-7,1층(망경동,망경한보A)",1998-06-02,110,100.44,2023-05-01,35.18213,128.0803574
천전동,한주럭키타운경로당,"경상남도 진주시 진주대로 859(주약동,한주럭키타운A)",1992-06-29,74,74,2023-05-01,35.1763912,128.0908598
천전동,한주한보타운경로당,"경상남도 진주시 망경로296번길 17(강남동,한주한보타운)",1996-05-29,39,38.7,2023-05-01,35.1841162,128.0867033
성북동,남성경로당,"경상남도 진주시 진양호로428번길 3-1,2층(인사동)",1989-05-13,143.5,52.02,2023-05-01,35.189238,128.0736035
성북동,봉곡경로당,경상남도 진주시 북장대로60번길 13(봉곡동),1999-02-03,168.5,103.17,2023-05-01,35.1956807,128.0746984
성북동,서부경로당,경상남도 진주시 남강로 629-7(본성동),1989-05-13,155,194.37,2023-05-01,35.1911505,128.0801564
성북동,오죽경로당,경상남도 진주시 북장대로35번길 12(봉곡동),2010-09-27,149.8,87.28,2023-05-01,35.1931666,128.0730692
성북동,인사경로당,경상남도 진주시 촉석로 70-2(인사동),2012-04-03,196.7,75.6,2023-05-01,35.1915318,128.0705497
성북동,일심경로당,경상남도 진주시 진양호로428번길 3-1(인사동),1989-05-13,143.5,52.02,2023-05-01,35.189238,128.0736035
성북동,중안경로당,경상남도 진주시 비봉로39번길 2-4(중안동),2009-02-17,140.1,129.5,2023-05-01,35.1942119,128.0803361
중앙동,남강한주아파트경로당,"경상남도 진주시 남강로736번길 6-3,3층(옥봉동,남강한주타운)",2004-01-29,82.6,82.6,2023-05-01,35.1907071,128.0914631
중앙동,대림A경로당,"경상남도 진주시 향교로115번길 10(옥봉동,대림A)",2006-03-23,49.62,49.62,2023-05-01,35.1958615,128.0939606
중앙동,봉래경로당,경상남도 진주시 의병로229번길 6-2(봉래동),1989-05-13,182,154,2023-05-01,35.2008665,128.0832842
중앙동,수정경로당,경상남도 진주시 촉석로217번길 16-5(수정동),1989-05-13,1209.6,216.79,2023-05-01,35.1973145,128.0853046
중앙동,옥남경로당,경상남도 진주시 진양호로625번길 9(옥봉동),1989-06-27,282,129.1,2023-05-01,35.1923481,128.0926038
중앙동,옥봉금산경로당,"경상남도 진주시 향교로90번길 4,1.2층(옥봉동)",1998-12-09,136,137.83,2023-05-01,35.1974058,128.0907631
중앙동,옥수경로당,"경상남도 진주시 향교로109번길 41-2,2층(옥봉동)",2006-04-07,77,69.23,2023-05-01,35.1980879,128.0962955
중앙동,장대경로당,경상남도 진주시 장대로20번길 6-7(장대동),1989-05-13,159,121.64,2023-05-01,35.1937069,128.0894502
중앙동,진주경로당,경상남도 진주시 옥봉길 19(옥봉동) 도 문화재로 지정(제359호),1989-05-13,484,99.17,2023-05-01,35.1965882,128.0891604
상봉동,대룡골경로당,경상남도 진주시 상봉대룡길5번길 12-11(상봉동),2006-01-17,188,77.49,2023-05-01,35.2005589,128.067496
상봉동,목련경로당,"경상남도 진주시 창렬로 129, 2층(상봉동,상봉A)",1989-05-13,45.3,33,2023-05-01,35.1987366,128.0698722
상봉동,못안경로당,경상남도 진주시 진주성로199번길 11-5(상봉동),2006-06-30,178,85.86,2023-05-01,35.2051802,128.0730363
상봉동,봉양경로당,경상남도 진주시 북장대로108번길 4-1(상봉동),1989-05-13,326.9,132,2023-05-01,35.1994137,128.0721662
상봉동,상봉2A경로당,"경상남도 진주시 진주성로147번길 10(상봉동,상봉2주공A)",1999-07-22,80,80,2023-05-01,35.2032524,128.0732747
상봉동,상봉A경로당,"경상남도 진주시 창렬로 129, 2층(상봉동,상봉A)",1989-05-13,50,33,2023-05-01,35.1987366,128.0698722
상봉동,상봉동동경로당,경상남도 진주시 비봉로 102-5(상봉동),1989-05-13,106,80.55,2023-05-01,35.1996438,128.0790985
상봉동,상봉한주타운경로당,"경상남도 진주시 진주대로1208번길 16(상봉동,상봉한주타운)",1993-12-14,78.2,78.2,2023-05-01,35.1955581,128.0705363
상봉동,푸른마을경로당,"경상남도 진주시 상봉대룡길 37(상봉동,에스디푸른마을A)",2014-03-24,58,58,2023-05-01,35.2027745,128.0672555
상봉동,한마음경로당,경상남도 진주시 진주성로99번길 10-4(상봉동),1996-07-23,155,89.88,2023-05-01,35.1984345,128.0748311
상봉동,화인A경로당,"경상남도 진주시 상봉대룡길 18(상봉동,화인A)",1994-08-09,65,51.84,2023-05-01,35.2017801,128.0690096
상대동,모덕경로당,경상남도 진주시 모덕로64번길 10-3(상대동),2010-04-27,154,90.78,2023-05-01,35.1814192,128.104168
상대동,상대경로당,경상남도 진주시 모덕로 129(상대동),1989-05-13,90,120,2023-05-01,35.1839056,128.1115194
상대동,상대2동경로당,"경상남도 진주시 대신로275번길 16-3,1,2층(상대동)",1999-01-23,156.3,183.12,2023-05-01,35.1852401,128.1154932
상대동,상대한보A경로당,"경상남도 진주시 도동천로 120(상대동,상대한보타운)",2001-05-24,137.85,137.85,2023-05-01,35.1811832,128.1136683
상대동,진광경로당,"경상남도 진주시 선학산길29번길 15-5,1.2층(상대동)",2002-01-23,99,109.74,2023-05-01,35.186221,128.1093939
상대동,현대선학경로당,"경상남도 진주시 모덕로181번길 7(상대동,상대현대A)",1992-06-09,162,162,2023-05-01,35.1871197,128.113239
하대동,대영A경로당,"경상남도 진주시 말티고개로 102-5(하대동,하대대영A)",1996-04-17,60,40.5,2023-05-01,35.196122,128.1126212
하대동,도동대림A경로당,"경상남도 진주시 하대로40번길 4 (하대동,도동대림A)",1994-08-09,90,67.86,2023-05-01,35.1936745,128.1278132
하대동,뒷골경로당,경상남도 진주시 하대로34번길 18-25(하대동),2007-02-28,102,97,2023-05-01,35.1929877,128.1136278
하대동,모자경로당,경상남도 진주시 모덕로197번길 21(하대동),1989-05-13,185.95,80.66,2023-05-01,35.1898448,128.115451
하대동,삼전프라자A경로당,"경상남도 진주시 도동로 251(하대동,삼전프라자)",2000-06-23,35,25.49,2023-05-01,35.1927856,128.1212583
하대동,상대주공A경로당,"경상남도 진주시 상대로 101,2층(하대동,상대주공A)",1992-07-26,34.5,34.5,2023-05-01,35.1851558,128.1237423
하대동,일신아파트경로당,"경상남도 진주시 하대로34번길 10,2층(하대동,일신A)",2010-03-30,122.34,61.17,2023-05-01,35.1933832,128.1147
하대동,지동경로당,경상남도 진주시 말티고개로118번길 13(하대동),2009-10-12,285,74.64,2023-05-01,35.1953561,128.1141116
하대동,하대1동경로당,경상남도 진주시 모덕로233번길 20(하대동),2010-07-14,170.9,96.88,2023-05-01,35.190493,128.1195207
하대동,하대2동경로당,"경상남도 진주시 모덕로294번길 11-3,2층(하대동)",2009-06-11,146.9,127.82,2023-05-01,35.1881732,128.1263946
하대동,하대대림A경로당,"경상남도 진주시 도동천로 310(하대동,하대대림A)",1993-11-25,125.9,125.9,2023-05-01,35.1851755,128.1264525
하대동,하대본동경로당,경상남도 진주시 모덕로197번길 6(하대동),1989-05-13,127.3,136.73,2023-05-01,35.1890718,128.1155
하대동,하대삼전1차A경로당,"경상남도 진주시 남강로1467(하대동,하대삼전A)",2005-05-30,22.2,22.2,2023-05-01,35.1851755,128.1264525
하대동,하대주공A경로당,"경상남도 진주시 상대로 125, 상가2층(하대동,하대주공A)",1999-09-15,30,21.8,2023-05-01,35.1853129,128.1263726
하대동,하대한보3차A경로당,"경상남도 진주시 남강로 1399(하대동,하대한보A)",1997-11-18,45.45,45.45,2023-05-01,35.1855066,128.1282934
하대동,하대현대A경로당,"경상남도 진주시 하대로 142(하대동,현대A)",1997-03-24,190,190,2023-05-01,35.1920765,128.1263029
하대동,한보힐타워경로당,"경상남도 진주시 상대로143번길 11-2 (하대동,한보힐타워)",1997-11-18,21,21,2023-05-01,35.1592532,128.1106794
하대동,한보타워맨션경로당,"경상남도 진주시 모덕로306번길 2 (하대동,한보타워맨션)",1996-03-15,29.6,29.6,2023-05-01,35.1887894,128.1270286
상평동,대림A경로당,"경상남도 진주시 남강로 951(상평동,대림A)",1992-08-08,24.48,24.48,2023-05-01,35.1686276,128.1084522
상평동,동국제1강변타워경로당,"경상남도 진주시 큰들로66번길 12(상평동,동국제1강변타워)",2011-10-04,190,40,2023-05-01,35.1700841,128.1095746
상평동,동국제2강변타워경로당,"경상남도 진주시 돗골로19번길 12,2층(상평동,동국제2강변타워)",2010-07-14,100.78,62,2023-05-01,35.1701342,128.112021
상평동,동신A경로당,"경상남도 진주시 돗골로117번길 15(상평동,동신A)",2005-03-25,29.7,29.7,2023-05-01,35.1783077,128.1106779
상평동,상평동동경로당,경상남도 진주시 큰들로 184-1(상평동),1989-05-13,270.5,164.08,2023-05-01,35.1712988,128.1229558
상평동,상평동일스위트경로당,"경상남도 진주시 공단로 30(상평동,상평동일스위트)",2010-07-14,150,115,2023-05-01,35.1737253,128.1028688
상평동,상평서동경로당,"경상남도 진주시 남강로1117번길 20,1,2층(상평동)",1989-05-13,1656.3,125.73,2023-05-01,35.1695964,128.1144716
상평동,송림경로당,경상남도 진주시 솔밭로 76-1(상평동),1989-05-13,193.9,163.02,2023-05-01,35.1759131,128.1074194
상평동,진주센트럴자이A경로당,"경상남도 진주시 도동천로 48(상평동,진주센트럴자이A)",2014-09-22,105,105,2023-05-01,35.1777854,128.1056328
초장동,모퉁이마을경로당,경상남도 진주시 초전남로39번길2(초전동),2015-06-26,110,30.21,2023-05-01,35.1998511,128.1135291
초장동,일동A경로당,"경상남도 진주시 초전북로 20(초전동,초전일동A)",2001-04-10,25.35,25.35,2023-05-01,35.2077157,128.1093797
초장동,장재경로당,경상남도 진주시 진산로 339-2(장재동),1989-05-13,226.4,334.29,2023-05-01,35.215895,128.101388
초장동,중촌경로당,"경상남도 진주시 하촌로196번길 19-4,2층(하촌동)",1989-05-13,321,84.36,2023-05-01,35.2163689,128.081338
초장동,진주초장엠코타운경로당,"경상남도 진주시 초북로 77(초전동, 진주초장엠코타운더이스턴파크)",2016-06-07,129.29,129.29,2023-05-01,35.2135587,128.107521
초장동,천곡경로당,경상남도 진주시 장재새미길 21(장재동),1998-09-28,142,80.73,2023-05-01,35.2083713,128.0997257
초장동,청구A경로당,"경상남도 진주시 대신로475번길 16-5(초전동, 청구A)",2000-05-23,54.9,54.9,2023-05-01,35.202704,128.1136889
초장동,초남경로당,"경상남도 진주시 대신로475번길 7,2층(초전동)",1989-06-27,510.8,477.71,2023-05-01,35.2025556,128.1154409
초장동,초북경로당,경상남도 진주시 초전북로19번길 5-2(초전동)(변경전주소)(신주소)초전북로19번길 6(초전동)<2016.1.4.변경공문옴>,1994-11-05,183.48,60.55,2023-05-01,35.2077524,128.1085421
초장동,초전대림경로당,"경상남도 진주시 말띠고개로 113(초전동,초전대림A)",1996-09-14,67,66.15,2023-05-01,35.1993883,128.126049
초장동,초전푸르지오1단지경로당,"경상남도 진주시 초장로14번지 27(초전동,초전푸르지오1단지)",2010-07-14,198,198,2023-05-01,35.2032398,128.1223203
초장동,초전푸르지오2단지경로당,"경상남도 진주시 초장로14번길 29(초전동,초전푸르지오2단지)",2010-08-19,144.9,144.9,2023-05-01,35.2067984,128.1118284
초장동,초전현대A경로당,"경상남도 진주시 초전남로 46(초전동,현대A)",1997-11-27,82,82,2023-05-01,35.2005504,128.1142357
초장동,초전흥한A경로당,"경상남도 진주시 초전남로 30(초전동,초전흥한A)",2000-11-08,54,54,2023-05-01,35.199118,128.114787
초장동,하촌경로당,경상남도 진주시 하촌로96번길 49(하촌동),1989-05-13,508.05,81.63,2023-05-01,35.2164984,128.0901282
초장동,해모로루비채2단지경로당,"경상남도 진주시 초북로 88(초전동,초전해모루루비채2단지)",2015-06-01,120.47,120.47,2023-05-01,35.2147884,128.1078926
초장동,해모로루비채4단지경로당,"경상남도 진주시 초북로 55(초전동,초전해모루루비채4단지)",2015-01-08,134,134,2023-05-01,35.2120496,128.1096961
초장동,현대아파트1단지경로당,"경상남도 진주시 초전남로 60(초전동,현대A)",2007-03-14,80,80,2023-05-01,35.2016989,128.1138943
평거동,국제A경로당,"경상남도 진주시 석갑로 138(신안동,신안국제맨션)",2006-12-06,40,40,2023-05-01,35.1817859,128.0634863
평거동,그린타운경로당,"경상남도 진주시 석갑로156번길 19(신안동,그린타운)",2009-10-12,50,27,2023-05-01,35.1829611,128.0643888
평거동,대경그린파크경로당,"경상남도 진주시 순환로573번길 21(평거동,대경그린파크)",2014-04-11,48.15,48.15,2023-05-01,35.1731757,128.0577648
평거동,대화리네르빌경로당,"경상남도 진주시 순환로559번길 7(평거동,평거대화리네르빌)",2006-04-04,26,25.67,2023-05-01,35.1733307,128.0590849
평거동,덕곡경로당,경상남도 진주시 석갑로142번길 26(신안동),1989-05-13,293,100.43,2023-05-01,35.1826638,128.0657915
평거동,들말대경A경로당,"경상남도 진주시 석갑로53번길 10(평거동,들말대경A)",1998-08-20,113.25,113.25,2023-05-01,35.1761974,128.0634069
평거동,들말한보A경로당,"경상남도 진주시 평거로39번길 9,2층(평거동,들말한보A)",1998-04-17,65,64.21,2023-05-01,35.1734967,128.0633155
평거동,들말흥한A경로당,"경상남도 진주시 석갑로 45(평거동,들말흥한A)",1998-07-24,211.17,211.17,2023-05-01,35.176087,128.0661958
평거동,샛터경로당,"경상남도 진주시 진양호로239번길 12-10,1층2층(평거동)",2000-04-12,78,82.36,2023-05-01,35.1762115,128.061161
평거동,신안주공3차A경로당,"경상남도 진주시 석갑로 58,3층(신안동,주공3차A)",1998-07-24,113.79,113.79,2023-05-01,35.1774362,128.0656351
평거동,신안주공1차A경로당,"경상남도 진주시 신안들말길 17(신안동,주공1차)",1999-11-26,130.5,130.5,2023-05-01,35.1775515,128.0690591
평거동,신안주공2차A경로당,"경상남도 진주시 신안들말길 47(신안동,주공2차A)",1997-03-03,80.15,80.15,2023-05-01,35.1787752,128.0666096
평거동,신안주공2차A 할머니경로당,"경상남도 진주시 신안들말길 47,2층(신안동,주공2차A)",1998-02-04,55.6,55.6,2023-05-01,35.1787752,128.0666096
평거동,신흥경로당,경상남도 진주시 석갑로89번길 3-4(신안동),1989-09-10,270,114.96,2023-05-01,35.1780731,128.0615206
평거동,평거주공1차A경로당,"경상남도 진주시 진양호로185번길 7(평거동,주공1차A)",1995-06-22,49,48.6,2023-05-01,35.1718906,128.0575222
평거동,평거하우스토리경로당,"경상남도 진주시 진양호로239번길 13(평거동,평거하우스토리)",2013-03-11,83.83,83.83,2023-05-01,35.1754533,128.0600979
평거동,평거휴먼시아3단지경로당,"경상남도 진주시 새평거로 111(평거동,평거휴먼시아3단지)",2012-05-07,148.99,148.99,2023-05-01,35.1738147,128.0654304
평거동,한보하이타운경로당,"경상남도 진주시 순환로553번길 7,3층(평거동,한보하이타운)",2006-12-06,51,50.48,2023-05-01,35.1726332,128.05928
평거동,엘크루경로당,경상남도 진주시  새평거로 112,2018-04-06,113.86,113.86,2023-05-01,35.1691931,128.0603288
신안동,신안경로당,경상남도 진주시 신안로126번길 12(신안동),2000-12-12,225.2,91.07,2023-05-01,35.1886013,128.0696981
신안동,신안1차흥한타운경로당,"경상남도 진주시 진양호로328번길 4,지하1층(신안동,신안1차흥한타운)",2002-07-09,59.73,59.73,2023-05-01,35.1815082,128.0674026
신안동,천수경로당,경상남도 진주시 남강로543번길 25-1(신안동),2006-01-17,94.6,55.53,2023-05-01,35.1871791,128.072309
신안동,평거1차현대A경로당,"경상남도 진주시 평거로115번길 5(신안동,평거1차현대A)",1994-09-02,127.8,127.8,2023-05-01,35.1800083,128.0678647
신안동,평거2차현대A경로당,"경상남도 진주시 신안들말길 58(신안동,평거2차현대A)",2013-12-16,33.6,33.6,2023-05-01,35.1805972,128.0666846
신안동,한보타워경로당,"경상남도 진주시 남강로491번길 12,2층(신안동,한보타워맨션)",1992-08-04,65.1,65.1,2023-05-01,35.1825638,128.0725965
신안동,한주파크경로당,"경상남도 진주시 남강로 479(신안동,한주파크맨션)",2000-07-11,23.5,23.5,2023-05-01,35.1821328,128.0689783
신안동,현대A경로당,"경상남도 진주시 천수로 315(신안동,현대A)",1992-08-04,108,108,2023-05-01,35.1841011,128.0718193
신안동,흥한2차A경로당,"경상남도 진주시 평거로139번길 11-3(신안동,신안흥한타운2차)",1995-07-22,35.91,35.91,2023-05-01,35.1810361,128.0685969
이현동,각한경로당,경상남도 진주시 나불로100번길 13(유곡동),2000-07-31,327,75.54,2023-05-01,35.2063376,128.0561823
이현동,나부리경로당,경상남도 진주시 나불로 178-1(유곡동),2011-10-04,53,27.98,2023-05-01,35.2108094,128.0497996
이현동,덕산A경로당,"경상남도 진주시 서장대로178번길 17(이현동,진주덕산A)",1995-10-19,84.96,84.96,2023-05-01,35.1875735,128.0587937
이현동,면호실경로당,경상남도 진주시 나불로21번길 130(이현동),1994-03-08,274,91,2023-05-01,35.2026291,128.0449145
이현동,버드골경로당,경상남도 진주시 진주대로1310번길 9(유곡동),1995-10-19,219.51,104.39,2023-05-01,35.1951128,128.0600759
이현동,유곡경로당,경상남도 진주시 유곡죽전길 26(유곡동),1989-05-13,102,79.85,2023-05-01,35.1953063,128.0675209
이현동,유곡한보A경로당,"경상남도 진주시 진주대로 1278(유곡동,유곡한보A)",2000-08-23,21.5,21.5,2023-05-01,35.1941905,128.0630755
이현동,유현경로당,경상남도 진주시 나불로8번길 48(유곡동),1994-12-30,69,73.44,2023-05-01,35.2010493,128.056014
이현동,이현A경로당,"경상남도 진주시 서장대로 235(이현동,주공A)",1989-05-13,141.9,141.9,2023-05-01,35.1920226,128.0582664
이현동,이현남동경로당,경상남도 진주시 숙호산로 58-5(이현동),1989-05-13,157,94.75,2023-05-01,35.1864676,128.061392
이현동,이현북동경로당,경상남도 진주시 이현두곡길 53-3(이현동),1989-05-13,641,329.4,2023-05-01,35.1931457,128.0515737
이현동,이현웰가경로당,"경상남도 진주시 진주대로 1317(이현동,이현하이클래스웰가)",2009-03-26,160.96,160.96,2023-05-01,35.1939114,128.0573317
이현동,촉석경로당,경상남도 진주시 평거로264번길 16-1(이현동),2008-05-26,151.1,119.8,2023-05-01,35.1910237,128.0645726
판문동,국민주택경로당,"경상남도 진주시 진양호로97번길 20(평거동,국민주택A)",1999-11-16,36,36,2023-05-01,35.168919,128.0506206
판문동,더퀸즈웰가아파트경로당,"경상남도 진주시 새평거로 25(평거동, 더퀸즈웰가@)",2016-05-27,225.83,225.83,2023-05-01,35.1665481,128.051802
판문동,벽산동신2A경로당,"경상남도 진주시 진양호로125번길 22-12(평거동,벽산동신A)",2001-07-13,52,51.75,2023-05-01,35.1709504,128.0526927
판문동,상촌복지경로당,경상남도 진주시 판문로406번길 9-1(판문동),2001-01-12,116,68.31,2023-05-01,35.2029696,128.0339522
판문동,조라골경로당,"경상남도 진주시 진양호로125번길 27,평거제1어린이공원내(평거동)",2005-06-28,1500.7,74.88,2023-05-01,35.1700806,128.0517598
판문동,중촌복지경로당,경상남도 진주시 판문로358번길 4-1(판문동),2005-10-07,162,85.23,2023-05-01,35.1976722,128.034578
판문동,진주평거5단지경로당,"경상남도 진주시 새평거로 70(평거동,엘에이치5단지)",2013-01-29,152.98,152.98,2023-05-01,35.1666398,128.0563549
판문동,판문남동경로당,경상남도 진주시 판문로 55(판문동),1989-05-13,516,98.82,2023-05-01,35.1722283,128.0433871
판문동,판문북동경로당,경상남도 진주시 판문로322번길 4(판문동),1989-05-13,650.48,85.69,2023-05-01,35.1948388,128.0354871
판문동,판문새동네경로당,경상남도 진주시 진양호로79번길 12(판문동),1999-02-20,99,49.91,2023-05-01,35.1679669,128.04806
판문동,판문샛터경로당,경상남도 진주시 판문로229번길 11(판문동),2000-03-21,149,84.01,2023-05-01,35.1867369,128.037764
판문동,판문오동경로당,경상남도 진주시 판문오동길 55-11(판문동),2015-01-29,263,86.76,2023-05-01,35.1719151,128.0412111
판문동,판문현대A경로당,"경상남도 진주시 진양호로51번길 6-7(판문동,현대A)",1999-12-31,40.7,40.7,2023-05-01,35.1680936,128.0461477
판문동,평거본동경로당,경상남도 진주시 진양호로143번길 10(평거동),1989-05-13,132,143.01,2023-05-01,35.1697082,128.0546223
판문동,평거엠코경로당,"경상남도 진주시 새평거로 30, 104동 1층 실버타운(평거동,엠코타운더프라하)",2014-12-05,248.23,248.23,2023-05-01,35.1650747,128.0523266
판문동,평거한보타운경로당,"경상남도 진주시 진양호로97번길 19-6(평거동,한보타운)",1994-11-29,37.12,37.12,2023-05-01,35.1694188,128.0498105
판문동,평거휴먼시아4단지경로당,"경상남도 진주시 새평거로 75(평거동,평거휴먼시아4단지)",2012-05-18,150.67,97.37,2023-05-01,35.1679312,128.0552975
판문동,하영무지개경로당,"경상남도 진주시 진양호로 153(평거동,하영무지개맨션)",1998-12-24,35,34.56,2023-05-01,35.1918767,128.0896136
판문동,하영그린경로당,"경상남도 진주시 진양호로97번길 8-3(평거동,하영그린맨션)",1998-09-19,38.64,38.64,2023-05-01,35.1680092,128.051005
가호동,가좌3주공A경로당,"경상남도 진주시 진주대로568번길 14 (가좌동,가좌3주공A)",2006-04-04,94.2,94.2,2023-05-01,35.1568923,128.1097297
가호동,가좌A(가좌주공2A)경로당,"경상남도 진주시 가호로 26(가좌동,가좌주공2A)",1994-05-04,96.81,96.81,2023-05-01,35.1568175,128.1104825
가호동,가좌그린빌경로당,"경상남도 진주시 내동로348번길 10(가좌동,가좌그린빌)",2006-07-07,169.6,169.6,2023-05-01,35.1487072,128.1014558
가호동,가좌복지관경로당,"경상남도 진주시 가호로 26(가좌동, 가좌주공A)",1996-05-29,98,98,2023-05-01,35.1568175,128.1104825
가호동,가좌올리움경로당,"경상남도 진주시 가호로 17-10(가좌동,가좌올리움A)",2013-04-19,70.37,70.37,2023-05-01,35.16453,128.107584
가호동,가호경로당,경상남도 진주시 진주대로 653(가좌동),1989-05-13,313,94.5,2023-05-01,35.1619838,128.1071461
가호동,가호동삼성A경로당,"경상남도 진주시 동부로 43번길 10-13(호탄동, 삼성아파트)",2015-01-26,71.58,71.58,2023-05-01,35.1626198,128.1133643
가호동,가호에일린의뜰경로당,"경상남도 진주시 강변길 31(가좌동,가호에일린의뜰)",2013-01-29,122.98,122.98,2023-05-01,35.1653798,128.1090741
가호동,대경빌라트경로당,"경상남도 진주시 가호로 79(호탄동,대경빌라트)",2002-12-02,102.69,102.69,2023-05-01,35.1646777,128.1138431
가호동,대동아파트경로당,"경상남도 진주시 가호로44번길 7(호탄동,대동A)",2004-03-05,204.7,204.7,2023-05-01,35.1626584,128.11221
가호동,주개경로당,"경상남도 진주시 진주대로404번길 20-21,2층(가좌동)",2008-06-05,560.1,141.6,2023-05-01,35.1446884,128.1026794
가호동,호탄경로당,경상남도 진주시 동부로 89(호탄동),2008-04-23,119.9,35.5,2023-05-01,35.1654942,128.126308
충무공동,경남혁신도시LH1단지경로당,"경상남도 진주시 사들로 157((충무공동,혁신도시LH아파트1단지)",2014-05-01,120.43,120.43,2023-05-01,35.1819911,128.1477374
충무공동,경남혁신도시LH4단지경로당,"경상남도 진주시 사들로 126(충무공동,혁신도시LH아파트 4단지)",2014-09-22,146.4,146.4,2023-05-01,35.1785627,128.1496959
충무공동,경남혁신도시LH5단지경로당,"경상남도 진주시 충의로 67(충무공동,혁신도시LH아파트 5단지)",2016-07-22,164.17,164.17,2023-05-01,35.1785264,128.1522886
충무공동,한림풀에버아파트경로당,"경상남도 진주시 소호로 39(충무공동, 한림풀에버A)",2016-10-18,271.9579,271.9579,2023-05-01,35.1716578,128.1333384
충무공동,혁신도시LH아파트8단지경로당,"경상남도 진주시  사들로 35 (충무공동, 경남혁신도시LH8단지@)",2017-11-30,139.51,139.51,2023-05-01,35.1719908,128.1464677
